[
  {
    "name": "Cappella Sistina (Cappella Sixtina)",
    "id": 1,
    "location": {
      "address": "Viale Vaticano",
      "lat": 41.902916,
      "lng": 12.454301
    }
  },
  {
    "name": "Musei Vaticani (Musea Vaticana)",
    "id": 2,
    "location": {
      "address": "Viale Vaticano",
      "lat": 41.90512773363736,
      "lng": 12.454622983932495
    }
  },
  {
    "name": "Castel Sant'Angelo",
    "id": 3,
    "location": {
      "address": "Lungotevere Castello",
      "lat": 41.903131463609306,
      "lng": 12.466328144073485
    }
  },
  {
    "name": "Museo Pio-Clementino",
    "id": 4,
    "location": {
      "address": "Viale Vaticano",
      "lat": 41.90647851386593,
      "lng": 12.454777662522435
    }
  },
  {
    "name": "Sala dei papiri",
    "id": 5,
    "location": {
      "address": "Viale Vaticano",
      "lat": 41.906859266210304,
      "lng": 12.453365201038611
    }
  },
  {
    "name": "Palazzo Barberini",
    "id": 6,
    "location": {
      "address": "Via delle Quattro Fontane, 13",
      "lat": 41.90271334661502,
      "lng": 12.489532475341136
    }
  },
  {
    "name": "Galleria Borghese",
    "id": 7,
    "location": {
      "address": "Piazzale Scipione Borghese 5",
      "lat": 41.91423791754392,
      "lng": 12.492184638977049
    }
  },
  {
    "name": "Chiesa di San Pietro in Montorio",
    "id": 8,
    "location": {
      "address": "Piazza di San Pietro in Montorio, 2",
      "lat": 41.88861216288033,
      "lng": 12.46672656477622
    }
  },
  {
    "name": "Sala Del Perseo",
    "id": 9,
    "location": {
      "lat": 41.902905,
      "lng": 12.466359
    }
  },
  {
    "name": "Complesso del Vittoriano",
    "id": 10,
    "location": {
      "address": "Via di San Pietro in Carcere",
      "lat": 41.89481676237542,
      "lng": 12.482647308595341
    }
  },
  {
    "name": "Palazzo delle Esposizioni",
    "id": 11,
    "location": {
      "address": "Via Nazionale, 194",
      "lat": 41.899056132679235,
      "lng": 12.490554209014324
    }
  },
  {
    "name": "Museo Palatino",
    "id": 12,
    "location": {
      "address": "Via San Gregorio 30",
      "crossStreet": "Palatino",
      "lat": 41.88888937775732,
      "lng": 12.48708227300472
    }
  },
  {
    "name": "MAXXI Museo Nazionale delle Arti del XXI Secolo",
    "id": 13,
    "location": {
      "address": "Via Guido Reni, 4/A",
      "crossStreet": "Via Flaminia e Via Giovanni Paolo Pannini",
      "lat": 41.92845469637062,
      "lng": 12.466839808915687
    }
  },
  {
    "name": "MACRO - Museo d'Arte Contemporanea Roma",
    "id": 14,
    "location": {
      "address": "Via Nizza, 138",
      "lat": 41.91354664627556,
      "lng": 12.503016074230299
    }
  },
  {
    "name": "Musei Capitolini",
    "id": 15,
    "location": {
      "address": "Piazza del Campidoglio 1",
      "lat": 41.893342729375746,
      "lng": 12.482884518342427
    }
  },
  {
    "name": "Mercati di Traiano - Museo dei Fori Imperiali",
    "id": 16,
    "location": {
      "address": "Via IV Novembre, 94",
      "lat": 41.8962879734008,
      "lng": 12.485972954465614
    }
  },
  {
    "name": "Museo Centrale del Risorgimento",
    "id": 17,
    "location": {
      "address": "Via di San Pietro in Carcere 1",
      "lat": 41.89425554187053,
      "lng": 12.484030416605654
    }
  },
  {
    "name": "Palazzo Massimo Alle Terme - Museo Nazionale Romano",
    "id": 18,
    "location": {
      "address": "Largo di Villa Peretti",
      "lat": 41.901696325919005,
      "lng": 12.497788395229506
    }
  },
  {
    "name": "Galleria Nazionale d'Arte Moderna",
    "id": 19,
    "location": {
      "address": "Viale delle Belle Arti 131",
      "lat": 41.91687252237996,
      "lng": 12.4819815158844
    }
  },
  {
    "name": "Museo dell'Ara Pacis",
    "id": 20,
    "location": {
      "address": "Lungotevere in Augusta",
      "crossStreet": "Via Tomacelli",
      "lat": 41.90574447228617,
      "lng": 12.475521042915416
    }
  }
]